City_ID,City,Lat,Lng,Max Temp,Humidity,Cloudiness,Wind Speed,Country,Date
0,college,64.8569,-147.8028,273.33,95,23,0.97,US,1698714001
1,namibe,-15.1961,12.1522,290.87,80,0,1.89,AO,1698714311
2,pombas,17.1503,-25.0201,297.03,67,59,1.02,CV,1698714461
3,sabang,5.8933,95.3214,300.32,75,81,1.14,ID,1698714301
4,ixtapa,20.7,-105.2,301.72,74,100,2.06,MX,1698714465
5,camalu,30.85,-116.0667,292.43,44,0,1.81,MX,1698714467
6,lebu,-37.6167,-73.65,281.3,79,94,3.9,CL,1698714162
7,utrik,11.2278,169.8474,301.33,80,100,8.02,MH,1698714268
8,adamstown,-25.066,-130.1015,296.25,74,100,3.18,PN,1698714252
9,waitangi,-43.9535,-176.5597,288.61,78,100,7.6,NZ,1698714255
10,vila franca do campo,37.7167,-25.4333,292.38,99,44,3.8,PT,1698714361
11,alofi,-19.0595,-169.9187,301.09,61,75,6.17,NU,1698714393
12,tiksi,71.6872,128.8694,252.07,100,80,1.17,RU,1698714335
13,hawaiian paradise park,19.5933,-154.9731,300.88,86,100,4.63,US,1698714257
14,stanley,54.868,-1.6985,280.24,94,100,3.0,GB,1698714029
15,carnarvon,-24.8667,113.6333,297.56,48,0,4.85,AU,1698714224
16,madras,13.0878,80.2785,299.24,89,75,1.03,IN,1698714492
17,kodiak,57.79,-152.4072,280.88,93,100,3.6,US,1698714251
18,port mathurin,-19.6833,63.4167,297.54,82,20,8.13,MU,1698714069
19,galdar,28.147,-15.6502,293.43,76,92,3.84,ES,1698714499
20,margaret river,-33.95,115.0667,289.35,51,100,3.66,AU,1698714289
21,walvis bay,-22.9575,14.5053,287.68,94,0,3.09,NA,1698714393
22,iqaluit,63.7506,-68.5145,261.0,72,75,10.8,CA,1698714123
23,hasaki,35.7333,140.8333,292.37,53,6,2.42,JP,1698714507
24,zouerate,22.7187,-12.4521,301.43,15,0,2.77,MR,1698714509
25,praya,14.9215,-23.5087,298.45,78,75,3.6,CV,1698714359
26,san severino marche,43.2281,13.1802,292.34,77,96,3.63,IT,1698714467
27,kirakat,25.6333,82.9167,291.19,62,95,0.61,IN,1698714515
28,coyhaique,-45.5752,-72.0662,278.12,75,0,2.57,CL,1698714518
29,bethel,41.3712,-73.414,283.72,83,100,2.57,US,1698714254
30,hermanus,-34.4187,19.2345,287.07,78,0,6.86,ZA,1698714273
31,kourou,5.1552,-52.6478,300.18,87,37,3.27,GF,1698714524
32,presidencia de la plaza,-27.0015,-59.8424,294.55,87,5,4.22,AR,1698714526
33,crane,31.3974,-102.3501,278.57,45,2,2.38,US,1698714394
34,lompoc,34.6391,-120.4579,294.23,59,0,4.02,US,1698714270
35,san antonio de pale,-1.4014,5.6325,299.57,84,100,6.3,GQ,1698714532
36,tadine,-21.55,167.8833,295.75,56,8,4.62,NC,1698714534
37,ilulissat,69.2167,-51.1,275.16,51,6,7.2,GL,1698714272
38,port-aux-francais,-49.35,70.2167,276.79,87,100,17.63,TF,1698714263
39,thompson,55.7435,-97.8558,267.24,68,100,4.12,CA,1698714295
40,wotho,10.1657,166.0102,301.19,81,100,9.43,MH,1698714543
41,vilyuchinsk,52.9306,158.4028,280.3,60,9,3.47,RU,1698714300
42,olonkinbyen,70.9221,-8.7187,274.87,75,100,5.24,SJ,1698714265
43,santiago de cao,-7.9589,-79.2392,292.22,88,75,4.12,PE,1698714549
44,grytviken,-54.2811,-36.5092,276.04,82,65,3.2,GS,1698714256
45,lincoln,40.8,-96.667,276.78,52,0,2.57,US,1698714123
46,mkushi,-13.6202,29.3939,290.87,89,92,3.63,ZM,1698714556
47,albany,42.6001,-73.9662,279.63,80,100,0.45,US,1698713936
48,edinburgh of the seven seas,-37.0676,-12.3116,286.2,96,100,13.16,SH,1698714262
49,enewetak,11.3474,162.3373,300.42,86,100,7.97,MH,1698714295
50,georgetown,5.4112,100.3354,301.11,93,20,2.24,MY,1698714231
51,blackmans bay,-43.0167,147.3167,286.22,65,75,1.79,AU,1698714277
52,ola,59.5833,151.2833,271.61,65,14,2.66,RU,1698714276
53,yellowknife,62.456,-114.3525,271.44,86,75,1.54,CA,1698714260
54,sault ste. marie,46.5168,-84.3333,271.31,93,75,2.57,CA,1698714573
55,ribeira grande,38.5167,-28.7,293.02,84,93,9.39,PT,1698714251
56,poyang,28.9924,116.6675,294.69,64,6,2.42,CN,1698714577
57,sandnessjoen,66.0217,12.6316,270.21,80,0,3.6,NO,1698714200
58,santa vitoria,-18.8386,-50.1214,299.89,64,84,2.13,BR,1698714581
59,puerto varas,-41.3195,-72.9854,278.27,100,40,1.03,CL,1698714583
60,la passe,45.5549,-0.8967,288.14,84,64,11.97,FR,1698714292
61,uturoa,-16.7333,-151.4333,299.6,79,7,7.96,PF,1698714276
62,redwood falls,44.5394,-95.1169,276.12,65,100,7.72,US,1698714590
63,puerto natales,-51.7236,-72.4875,274.68,71,1,1.65,CL,1698714149
64,oltinko'l,40.8011,72.1634,291.18,36,100,1.93,UZ,1698714594
65,arauquita,7.0292,-71.4281,299.02,80,54,0.35,CO,1698714596
66,barcelos,41.5388,-8.6151,287.23,89,100,1.05,PT,1698714598
67,andovoranto,-18.95,49.1,295.49,92,10,2.76,MG,1698714600
68,longyearbyen,78.2186,15.6401,274.06,64,100,2.57,SJ,1698714201
69,sept-iles,50.2001,-66.3821,275.15,70,100,3.09,CA,1698714354
70,chernyshevskiy,63.0128,112.4714,245.96,99,24,1.03,RU,1698714355
71,atafu village,-8.5421,-172.5159,302.09,74,51,6.53,TK,1698714277
72,lancaster,40.2504,-76.2499,284.15,77,100,1.79,US,1698714611
73,pariaman,-0.619,100.12,298.18,85,100,0.71,ID,1698714613
74,polyarnyy,69.1989,33.4478,267.52,92,100,6.93,RU,1698714299
75,nar'yan-mar,67.6713,53.087,266.54,95,90,4.47,RU,1698714297
76,qaqortoq,60.7167,-46.0333,279.27,54,98,12.35,GL,1698714291
77,tura,25.5198,90.2201,293.4,88,84,1.32,IN,1698714278
78,aasiaat,68.7098,-52.8699,263.39,88,9,3.05,GL,1698714204
79,kingston,17.997,-76.7936,302.68,86,20,2.06,JM,1698714371
80,west island,-12.1568,96.8225,299.14,83,75,6.69,CC,1698714256
81,port elizabeth,-33.918,25.5701,288.31,90,0,5.66,ZA,1698714122
82,bilibino,68.0546,166.4372,258.16,78,77,1.08,RU,1698714276
83,talnakh,69.4865,88.3972,256.6,95,100,2.12,RU,1698714262
84,colonia,50.9333,6.95,285.35,84,100,6.69,DE,1698714336
85,rongelap,11.1635,166.8941,301.67,78,83,9.37,MH,1698714265
86,bogale,16.2833,95.4,298.08,90,88,3.1,MM,1698714645
87,cambria,35.5641,-121.0808,295.56,47,0,2.97,US,1698714648
88,novyy buh,47.6931,32.5216,285.11,88,12,3.66,UA,1698714650
89,karratha,-20.7377,116.8463,304.76,27,73,3.21,AU,1698714322
90,vila velha,-20.3297,-40.2925,299.12,82,0,6.26,BR,1698714654
91,hithadhoo,-0.6,73.0833,299.76,81,100,4.46,MV,1698714293
92,phichit,16.25,100.4167,296.27,97,100,2.09,TH,1698714658
93,terrace,54.5163,-128.6035,276.05,71,100,0.44,CA,1698714661
94,ironwood,46.4547,-90.171,271.38,64,100,4.12,US,1698714663
95,usogorsk,63.4106,48.6872,269.63,83,100,1.12,RU,1698714665
96,papatowai,-46.5619,169.4708,288.97,60,100,2.9,NZ,1698714290
97,kapuskasing,49.4169,-82.4331,269.15,68,20,1.54,CA,1698714262
98,st. john's,47.5649,-52.7093,274.97,93,100,0.0,CA,1698714276
99,bonthe,7.5264,-12.505,298.78,86,1,2.29,SL,1698714674
100,san sebastian de la gomera,28.0916,-17.1133,297.35,78,100,4.12,ES,1698714677
101,la sarre,48.8002,-79.1996,269.46,72,9,2.68,CA,1698714679
102,zakynthos,37.7914,20.8953,291.84,73,0,1.59,GR,1698714542
103,puerto baquerizo moreno,-0.9,-89.6,296.48,80,100,4.51,EC,1698714182
104,tamanrasset,22.785,5.5228,294.7,22,6,1.18,DZ,1698714686
105,afaahiti,-17.75,-149.2833,301.08,83,41,7.94,PF,1698714267
106,deder,9.3167,41.45,286.45,83,77,0.4,ET,1698714690
107,lihue,21.9789,-159.3672,301.73,70,40,4.12,US,1698714350
108,nabire,-3.3667,135.4833,300.95,83,25,1.34,ID,1698714695
109,angaur state,6.906,134.13,301.59,74,13,2.14,PW,1698714697
110,tolanaro,-25.0319,46.9987,297.19,88,75,1.03,MG,1698714396
111,puerto ayora,-0.7393,-90.3518,296.79,92,100,2.24,EC,1698714277
112,den burg,53.0542,4.7972,284.24,97,75,2.06,NL,1698714704
113,krasnyy kut,50.95,46.9667,280.69,82,100,7.48,RU,1698714706
114,ushuaia,-54.8,-68.3,276.96,65,75,9.26,AR,1698714074
115,wakema,16.6,95.1833,298.07,90,72,3.5,MM,1698714710
116,san patricio,28.017,-97.5169,282.06,67,100,7.75,US,1698714254
117,petawawa,45.9001,-77.3328,273.59,79,76,0.45,CA,1698714714
118,haiku-pauwela,20.9219,-156.3051,301.16,66,40,7.72,US,1698714313
119,troitsko-pechorsk,62.7084,56.1964,265.76,98,96,1.34,RU,1698714719
120,gimbi,9.1667,35.8333,285.16,95,78,0.64,ET,1698714721
121,invercargill,-46.4,168.35,289.83,69,100,1.34,NZ,1698714268
122,lata,40.1629,-8.3327,284.86,93,100,1.58,PT,1698714330
123,aral,40.5156,81.2636,285.74,27,100,1.42,CN,1698714333
124,tsiombe,-25.3,45.4833,293.71,89,81,2.87,MG,1698714315
125,cozumel,20.5083,-86.9458,300.34,94,20,2.06,MX,1698714704
126,primero de enero,21.9469,-78.4283,297.73,89,87,2.2,CU,1698714734
127,comodoro rivadavia,-45.8667,-67.5,278.07,87,75,1.54,AR,1698714736
128,faizpur,21.1667,75.85,293.17,56,25,1.16,IN,1698714739
129,guiuan,11.0333,125.7247,301.38,72,100,1.99,PH,1698714741
130,whitehorse,60.7161,-135.0538,274.87,93,100,3.6,CA,1698714251
131,sao mateus,-18.7161,-39.8589,297.33,76,81,5.03,BR,1698714745
132,arkhangel'sk,64.5401,40.5433,264.89,97,41,1.97,RU,1698714748
133,concordia,-31.393,-58.0209,291.92,71,98,5.36,AR,1698714750
134,bamboo flat,11.7,92.7167,299.2,94,40,1.03,IN,1698714752
135,san juan de los morros,9.9115,-67.3538,296.96,83,75,0.96,VE,1698714745
136,mutuali,-14.8706,37.0044,294.88,83,33,1.62,MZ,1698714360
137,wailua homesteads,22.0669,-159.378,301.39,71,40,4.12,US,1698714257
138,mahendragarh,28.2833,76.15,295.85,44,3,2.06,IN,1698714761
139,tres arroyos,-38.3739,-60.2798,278.09,62,6,3.06,AR,1698714763
140,onega,63.9061,38.1404,267.39,94,93,1.95,RU,1698714768
141,kavaratti,10.5669,72.642,300.41,75,100,2.74,IN,1698714306
142,san andres,12.5847,-81.7006,299.16,94,20,1.03,CO,1698714774
143,sao joao da barra,-21.6403,-41.0511,298.2,93,100,2.37,BR,1698714379
144,kisarazu,35.3747,139.9225,294.27,68,75,3.09,JP,1698714594
145,yanchep,-31.55,115.6833,293.78,39,69,5.97,AU,1698714780
146,bikenibeu village,1.3673,173.1241,302.13,79,75,3.09,KI,1698714160
147,sai buri,6.7013,101.6168,302.02,81,100,2.58,TH,1698714785
148,fort bragg,35.139,-79.006,296.94,65,0,3.6,US,1698714226
149,jonquiere,48.4165,-71.2488,273.36,92,100,4.66,CA,1698714789
150,teknaf,20.8624,92.3058,297.87,80,34,1.35,BD,1698714291
151,tinogasta,-28.0632,-67.5649,290.8,52,0,2.43,AR,1698714643
152,dunedin,-45.8742,170.5036,288.6,73,100,1.79,NZ,1698714640
153,klyuchi,52.2667,79.1667,278.75,97,100,2.03,RU,1698714304
154,sos'va,59.1766,61.8558,269.85,63,100,4.92,RU,1698714802
155,springs,-26.25,28.4,279.08,98,100,5.12,ZA,1698714805
156,tanumah,27.1,44.1333,294.04,37,29,2.97,SA,1698714807
157,paramirim,-13.4425,-42.2389,300.14,37,100,0.81,BR,1698714809
158,grand falls-windsor,48.9332,-55.6649,274.54,84,96,1.64,CA,1698714338
159,callao,-12.0667,-77.15,295.77,77,20,5.66,PE,1698714269
160,port alfred,-33.5906,26.891,284.92,94,31,6.71,ZA,1698714295
161,pisco,-13.7,-76.2167,293.18,77,18,5.66,PE,1698714352
162,xinyuan,37.3,99.0,270.73,48,0,1.89,CN,1698714820
163,wloclawek,52.6482,19.0678,285.11,85,99,5.55,PL,1698714825
164,igrim,63.1906,64.4162,264.72,80,100,2.6,RU,1698714314
165,st. paul,44.9444,-93.0933,276.77,57,20,5.66,US,1698714674
166,ulladulla,-35.35,150.4667,295.24,29,0,5.88,AU,1698714831
167,rehli,23.6333,79.0833,290.76,62,100,1.21,IN,1698714833
168,puerto deseado,-47.7503,-65.8938,277.58,59,34,7.05,AR,1698714835
169,cassilandia,-19.1133,-51.7342,299.84,59,100,2.03,BR,1698714837
170,machico,32.7,-16.7667,294.82,95,75,3.6,PT,1698714839
171,saint-pierre,-21.3393,55.4781,295.97,64,0,4.63,RE,1698714842
172,al jawf,29.5,38.75,291.86,62,21,2.18,SA,1698714845
173,harstad,68.799,16.5293,272.94,96,99,3.58,NO,1698714848
174,newman,37.3138,-121.0208,294.28,27,3,1.52,US,1698714850
175,kandalaksha,67.162,32.4123,263.1,92,29,0.89,RU,1698714852
176,kulhudhuffushi,6.6221,73.07,300.26,75,64,1.19,MV,1698714279
177,avarua,-21.2078,-159.775,297.18,73,75,6.17,CK,1698714289
178,arno,60.1167,18.6333,280.29,95,100,4.51,SE,1698714859
179,port lincoln,-34.7333,135.8667,288.55,47,36,4.92,AU,1698714023
180,akureyri,65.6835,-18.0878,265.11,93,58,2.06,IS,1698714865
181,penzance,50.1186,-5.5371,286.53,87,35,8.59,GB,1698714868
182,korla,41.7597,86.1469,284.63,42,55,2.8,CN,1698714870
183,cadale,2.7603,46.3222,300.4,76,75,1.58,SO,1698714872
184,sechura,-5.5569,-80.8222,294.27,78,12,8.07,PE,1698714874
185,fayroz koh,34.5195,65.2509,277.91,55,7,1.11,AF,1698714877
186,playa del ingles,27.7567,-15.5787,294.01,82,94,0.45,ES,1698714879
187,vorgashor,67.5833,63.95,262.53,92,100,4.17,RU,1698714881
188,kirakira,-10.4544,161.9205,302.84,73,23,4.68,SB,1698714883
189,pacific grove,36.6177,-121.9166,294.21,51,0,1.79,US,1698714010
190,carutapera,-1.195,-46.02,299.51,80,78,3.51,BR,1698714325
191,beipiao,41.7919,120.7792,286.0,45,73,3.08,CN,1698714890
192,tashtagol,52.7657,87.8894,280.66,97,100,4.92,RU,1698714892
193,codrington,-38.2667,141.9667,287.45,49,55,7.59,AU,1698714381
194,cabo san lucas,22.8909,-109.9124,300.71,74,20,4.63,MX,1698714300
195,howrah,22.5892,88.3103,296.15,88,100,2.57,IN,1698714898
196,kapa'a,22.0752,-159.319,302.14,69,40,4.12,US,1698714900
197,sydney mines,46.2367,-60.2177,277.09,94,100,0.45,CA,1698714685
198,mil'kovo,55.6078,37.7956,281.23,99,100,4.08,RU,1698714368
199,huarmey,-10.0681,-78.1522,293.12,86,35,3.45,PE,1698714343
200,punta arenas,-53.15,-70.9167,277.21,56,0,4.12,CL,1698714909
201,tranqueras,-31.2,-55.75,288.69,93,100,4.12,UY,1698714912
202,anadyr,64.75,177.4833,275.43,93,75,4.0,RU,1698714914
203,isafjordur,66.0755,-23.124,274.75,73,67,1.94,IS,1698714917
204,chibougamau,49.9168,-74.3659,267.94,86,0,2.06,CA,1698714149
205,gadzhiyevo,69.2551,33.3362,267.21,93,100,6.86,RU,1698714921
206,vorkuta,67.5,64.0,262.89,92,100,4.28,RU,1698714923
207,dapa,9.7594,126.0531,301.18,72,100,1.26,PH,1698714926
208,new norfolk,-42.7826,147.0587,286.87,40,88,5.32,AU,1698714175
209,nikolayevsk-on-amure,53.1406,140.73,275.8,52,9,3.16,RU,1698714930
210,thunder bay,48.4001,-89.3168,270.14,68,100,0.0,CA,1698714778
211,booue,-0.0921,11.9385,294.76,99,100,0.31,GA,1698714935
212,isiro,2.7739,27.616,292.48,98,99,1.18,CD,1698714939
213,kununurra,-15.7667,128.7333,306.14,49,100,3.09,AU,1698714725
214,motueka,-41.1333,173.0167,294.12,52,26,1.56,NZ,1698714944
215,nemuro,43.3236,145.575,284.63,73,19,5.1,JP,1698714363
216,concepcion,-36.827,-73.0498,281.5,74,100,3.99,CL,1698714696
217,colac,-38.3333,143.5833,285.42,50,100,5.23,AU,1698714950
218,uige,-7.6087,15.0613,292.93,99,98,1.25,AO,1698714949
219,lorengau,-2.0226,147.2712,301.39,74,50,3.62,PG,1698714954
220,kimbe,-5.5502,150.1429,298.55,90,100,0.32,PG,1698714957
221,lianjiang,21.6467,110.2817,296.79,82,97,2.62,CN,1698714959
222,sasolburg,-26.8136,27.817,279.29,87,100,6.06,ZA,1698714961
223,serhetabat,35.2799,62.3438,289.15,62,97,2.75,TM,1698714963
224,chegdomyn,51.1167,133.0167,270.73,54,71,1.04,RU,1698714966
225,kruisfontein,-34.0033,24.7314,283.88,91,0,3.28,ZA,1698714968
226,harpswell center,43.8018,-69.9842,277.3,88,100,0.45,US,1698714970
227,spring hill,28.4769,-82.5255,298.12,83,0,2.57,US,1698714972
228,susuman,62.7833,148.1667,259.81,94,90,0.45,RU,1698714975
229,hauterive,46.0901,3.4459,284.57,85,38,3.3,FR,1698714977
230,constantia,44.1833,28.65,284.65,79,3,3.35,RO,1698714979
231,camabatela,-8.1881,15.375,291.12,99,91,0.94,AO,1698714982
232,port augusta,-32.5,137.7667,291.86,48,44,4.79,AU,1698714984
233,zhanaozen,43.3,52.8,282.84,76,0,1.38,KZ,1698714986
234,egilsstadir,65.2653,-14.3948,266.1,93,0,2.57,IS,1698714989
235,sinabang,2.4803,96.3801,299.08,84,99,1.45,ID,1698714991
236,medeiros neto,-17.3739,-40.2206,296.0,71,100,4.83,BR,1698714994
237,fortuna,40.5982,-124.1573,286.85,63,0,0.0,US,1698714960
238,matoury,4.8483,-52.3317,300.13,94,100,0.0,GF,1698714998
239,laascaanood,8.4774,47.3597,296.58,76,78,3.68,SO,1698715000
240,akjoujt,19.6969,-14.4164,301.7,16,1,2.71,MR,1698715003
241,tual,-5.6667,132.75,300.91,78,41,4.0,ID,1698714957
242,sassandra,4.95,-6.0833,297.91,92,5,1.08,CI,1698715007
243,ventosa,39.127,-9.0842,288.02,95,100,1.34,PT,1698715009
244,tosontsengel,48.7567,98.2839,271.34,89,100,1.81,MN,1698715011
245,ta`u,-14.2336,-169.5144,300.05,80,41,11.19,AS,1698715013
246,awjilah,29.1081,21.2869,294.14,53,8,3.26,LY,1698715016
247,burang,30.25,81.1667,271.9,58,100,1.29,CN,1698715018
248,happy valley-goose bay,53.3168,-60.3315,270.32,54,20,4.12,CA,1698714910
249,luderitz,-26.6481,15.1594,289.09,53,4,5.6,NA,1698715022
250,aykhal,66.0,111.5,251.66,99,99,3.06,RU,1698715024
251,quepos,9.4236,-84.1652,298.51,88,100,0.71,CR,1698715027
252,xiulin,29.7167,112.4,294.77,57,6,3.54,CN,1698715029
253,martapura,-3.4167,114.85,304.2,66,0,2.06,ID,1698715032
254,homosassa springs,28.8036,-82.5759,297.27,85,0,2.06,US,1698715035
255,las khorey,11.1595,48.1967,299.7,86,98,3.67,SO,1698715037
256,kittila,67.6647,24.8936,261.23,85,100,1.03,FI,1698715041
257,rancho palos verdes,33.7445,-118.387,298.73,30,0,3.6,US,1698714930
258,lewistown,40.5992,-77.5714,282.7,87,100,3.6,US,1698715048
259,vinton,37.281,-79.897,286.12,76,100,5.36,US,1698715050
260,kigali,-1.95,30.0588,291.86,82,40,0.0,RW,1698715052
261,coquimbo,-29.9533,-71.3436,287.97,76,9,2.01,CL,1698714797
262,kavieng,-2.5744,150.7967,300.63,76,63,3.55,PG,1698715057
263,lodwar,3.1191,35.5973,298.92,69,16,4.26,KE,1698715059
264,shingu,33.7333,135.9833,293.29,52,0,0.51,JP,1698715061
265,blackwell,36.8045,-97.2828,276.13,71,0,0.45,US,1698715064
266,isangel,-19.55,169.2667,299.21,61,75,2.57,VU,1698715066
267,soto la marina,23.7667,-98.2167,285.94,54,100,6.23,MX,1698714780
268,port alberni,49.2413,-124.8028,282.06,85,51,0.45,CA,1698715070
269,nuku'alofa,-21.1333,-175.2,301.34,74,40,6.69,TO,1698715072
270,naxos,37.1056,25.3764,294.43,85,0,3.58,GR,1698715074
271,shangqiu,34.45,115.65,295.01,46,5,5.35,CN,1698715076
272,nuuk,64.1835,-51.7216,282.49,31,75,11.32,GL,1698715078
273,tangalle,6.024,80.7911,296.24,87,100,1.29,LK,1698714975
274,dauphin,51.1494,-100.0502,266.23,63,0,3.6,CA,1698715083
275,dudinka,69.4058,86.1778,256.83,97,99,0.89,RU,1698715085
276,halifax,44.6453,-63.5724,278.27,95,100,4.12,CA,1698714798
277,kitimat,54.0524,-128.6534,275.75,77,100,0.89,CA,1698714965
278,stettler,52.3168,-112.7186,272.01,80,100,3.09,CA,1698715092
279,udachny,66.4167,112.4,251.99,99,100,2.59,RU,1698715094
280,auki,-8.7676,160.7034,300.2,84,100,0.66,SB,1698715096
281,yigo village,13.5361,144.8886,303.77,78,75,7.2,GU,1698715099
282,woolgoolga,-30.1106,153.2007,308.73,38,48,3.23,AU,1698715103
283,petropavlovsk-kamchatsky,53.0452,158.6483,279.48,62,0,6.0,RU,1698714922
284,bad nenndorf,52.3333,9.3667,286.37,95,75,3.09,DE,1698715107
285,piti village,13.4626,144.6933,304.64,78,75,5.66,GU,1698715110
286,revda,56.801,59.9303,266.97,98,96,0.91,RU,1698715016
287,gornopravdinsk,60.05,69.9,263.0,93,78,2.66,RU,1698715114
288,tazovsky,67.4667,78.7,255.96,97,34,2.15,RU,1698714958
289,saipan,15.1355,145.701,304.54,74,40,5.66,MP,1698715118
290,baukau,51.5526,7.2042,285.91,85,100,2.68,DE,1698715123
291,yeppoon,-23.1333,150.7333,303.03,50,0,5.44,AU,1698715127
292,moratuwa,6.773,79.8816,297.87,88,57,1.52,LK,1698715129
293,peace river,56.2501,-117.286,274.32,74,100,1.03,CA,1698715006
294,n'dalatando,-9.2978,14.9116,293.94,95,99,0.97,AO,1698715134
295,vikulovo,56.8167,70.6107,263.73,94,65,3.94,RU,1698715136
296,kwang binh,17.4833,106.6,298.35,88,100,1.61,VN,1698715138
297,porto novo,6.4965,2.6036,299.4,84,91,1.38,BJ,1698715016
298,chonchi,-42.6128,-73.8092,277.1,95,3,0.45,CL,1698715142
299,stawell,-37.05,142.7667,289.06,35,3,4.26,AU,1698715145
300,cavelossim,15.1726,73.9419,300.14,88,43,2.01,IN,1698715147
301,portland,45.5234,-122.6762,286.12,47,0,7.2,US,1698715039
302,vadso,70.0744,29.7487,271.24,86,20,4.12,NO,1698715151
303,bodo,67.28,14.405,269.69,85,0,5.66,NO,1698715047
304,shahrud,36.4182,54.9763,285.33,76,99,4.45,IR,1698715158
305,wenceslau braz,-23.8739,-49.8028,293.28,93,100,1.01,BR,1698715160
306,sirjan,29.452,55.6814,289.57,51,56,2.24,IR,1698715162
307,neftcala,39.3742,49.2472,290.39,72,100,2.86,AZ,1698715166
308,west kelowna,49.8625,-119.5833,276.77,65,0,2.06,CA,1698715169
309,arteche,12.2645,125.4048,300.46,89,96,2.99,PH,1698714956
310,laguna,38.421,-121.4238,293.25,35,0,2.06,US,1698715173
311,forster,-32.1667,152.5167,306.64,31,82,1.28,AU,1698715175
312,kayangel,8.0823,134.7173,301.91,75,20,3.37,PW,1698715177
313,mermoz boabab,14.7065,-17.4758,299.46,78,1,3.26,SN,1698715180
314,mary,37.0,62.5,291.86,54,76,6.7,TM,1698714673
315,al khums,32.6486,14.2619,296.78,56,1,7.96,LY,1698715184
316,bredasdorp,-34.5322,20.0403,286.95,78,0,6.76,ZA,1698714914
317,nova sintra,14.8667,-24.7167,296.93,68,77,1.88,CV,1698715188
318,trairi,-3.2778,-39.2689,299.13,73,12,4.01,BR,1698715105
319,jamestown,42.097,-79.2353,277.92,85,100,4.12,US,1698714934
320,gijang,35.2442,129.2139,290.0,46,0,1.49,KR,1698715194
321,sangin,32.0728,64.8359,291.03,29,9,0.7,AF,1698715196
322,qarauyl,48.9451,79.255,280.2,89,100,4.32,KZ,1698715199
323,bluefields,12.0137,-83.7635,298.0,93,99,1.26,NI,1698715201
324,carahue,-38.7,-73.1667,277.34,93,7,0.81,CL,1698715203
325,mabaruma,8.2,-59.7833,299.03,85,16,2.05,GY,1698715205
326,ust-nera,64.5667,143.2,259.7,99,100,2.12,RU,1698714959
327,khandyga,62.6667,135.6,263.71,94,100,2.14,RU,1698714951
328,harper,4.375,-7.7169,298.71,89,94,1.07,LR,1698715212
329,pinehurst,35.1954,-79.4695,295.81,72,0,3.6,US,1698715215
330,plau am see,53.4582,12.2625,283.11,97,100,2.57,DE,1698715217
331,fraga,41.5229,0.3489,284.02,60,0,5.59,ES,1698715219
332,dungarvan,52.0881,-7.6253,281.24,87,23,3.09,IE,1698715221
333,gamba,-2.65,10.0,298.41,91,100,2.61,GA,1698715224
334,sisophon,13.5859,102.9737,297.81,90,100,4.36,KH,1698715228
335,gravatai,-29.9444,-50.9919,293.01,92,75,6.17,BR,1698715230
336,la mira,18.035,-102.3266,299.48,88,12,1.74,MX,1698715232
337,olyokminsk,60.3736,120.4264,264.54,61,100,1.27,RU,1698715235
338,coahuayana de hidalgo,18.7,-103.6583,299.33,91,57,1.77,MX,1698715237
339,umluj,25.0213,37.2685,300.76,58,0,4.49,SA,1698715239
340,iskateley,67.6803,53.1512,266.49,95,91,4.47,RU,1698715241
341,altai,46.3722,96.2583,273.98,69,100,3.57,MN,1698715132
342,wamba,8.9333,8.6,297.63,73,100,1.05,NG,1698715248
343,nazca,-14.8333,-74.95,295.86,55,37,2.41,PE,1698715250
344,sidney,-33.8679,151.2073,304.05,17,0,10.29,AU,1698714977
345,arawa,-6.2132,155.5367,300.92,82,95,1.01,PG,1698715254
346,federacion,-31.0062,-57.8996,291.81,74,100,6.95,AR,1698715256
347,nizhneangarsk,55.7833,109.55,263.71,67,10,2.24,RU,1698715258
348,luena,-11.7833,19.9167,290.33,90,100,0.62,AO,1698715260
349,tofol,5.3248,163.0078,303.03,74,100,5.14,FM,1698715262
350,ibarreta,-25.2144,-59.8585,294.01,95,100,3.0,AR,1698715265
351,minab,27.1467,57.0801,299.56,62,56,0.65,IR,1698715268
352,augusto correa,-1.0217,-46.635,299.58,76,95,2.74,BR,1698715270
353,tommot,58.9564,126.2925,257.65,89,35,0.41,RU,1698715272
354,rio preto da eva,-2.6994,-59.6997,300.25,73,100,2.38,BR,1698715274
355,mahina,-17.5065,-149.489,301.02,74,75,4.12,PF,1698715277
356,benjamin constant,-4.3831,-70.0311,299.18,83,20,1.03,BR,1698715279
357,sisimiut,66.9395,-53.6735,271.48,64,89,4.72,GL,1698715281
358,yuxi,24.355,102.5422,289.06,84,100,0.84,CN,1698715283
359,tavda,58.0425,65.2726,265.2,96,98,1.79,RU,1698715262
360,vuktyl,63.8567,57.3094,265.99,92,96,3.58,RU,1698715287
361,namtsy,62.7161,129.6658,258.8,91,87,2.66,RU,1698715290
362,mount gambier,-37.8333,140.7667,286.53,49,86,4.37,AU,1698715292
363,chingirlau,51.095,54.0814,276.08,76,100,5.22,KZ,1698715294
364,daventry,52.2569,-1.1607,280.83,96,35,1.52,GB,1698715297
365,medan,3.5833,98.6667,300.17,94,40,1.03,ID,1698715299
366,taulaga,-11.0553,-171.0883,301.55,78,31,9.3,AS,1698715124
367,saidpur,25.7777,88.8917,294.86,84,99,2.47,BD,1698715303
368,butte,39.6499,-121.5677,291.16,33,0,0.0,US,1698715058
369,nova xavantina,-14.6667,-52.35,304.69,36,100,1.31,BR,1698715310
370,wynyard,-41.0,145.7167,285.92,58,45,6.07,AU,1698715318
371,arraial do cabo,-22.9661,-42.0278,297.54,91,100,0.59,BR,1698715320
372,ise,34.4833,136.7,291.15,70,3,2.03,JP,1698715322
373,emerald,-23.5333,148.1667,304.45,26,0,3.43,AU,1698715324
374,superior,46.7208,-92.1041,273.42,89,100,4.12,US,1698715326
375,rikaze,29.25,88.8833,275.48,57,0,1.26,CN,1698715329
376,kas,36.2018,29.6377,295.17,49,9,1.89,TR,1698715331
377,belyy yar,53.6039,91.3903,270.09,93,40,0.0,RU,1698715333
378,forde,61.4522,5.8572,274.15,54,2,2.06,NO,1698715335
379,uray,60.1247,64.7758,266.97,69,100,2.68,RU,1698715338
380,mount isa,-20.7333,139.5,308.02,34,5,5.14,AU,1698715340
381,qacha's nek,-30.1154,28.6894,276.15,87,100,1.62,LS,1698715342
382,aitape,-3.1374,142.3475,298.75,91,100,3.47,PG,1698715344
383,mantua,45.1667,10.7833,288.73,90,10,0.89,IT,1698715346
384,san luis,-33.295,-66.3356,285.2,36,83,10.81,AR,1698715349
385,ghat,24.9647,10.1728,296.2,19,0,1.01,LY,1698715117
386,flying fish cove,-10.4217,105.6791,300.97,78,100,5.14,CX,1698715353
387,floro,61.5996,5.0328,278.69,44,0,3.09,NO,1698715355
388,el obeid,13.1842,30.2167,301.2,51,100,3.4,SD,1698715357
389,kailua-kona,19.6406,-155.9956,303.3,76,0,5.66,US,1698715359
390,ishinomaki,38.4167,141.3,291.15,69,0,1.74,JP,1698715362
391,gandajika,-6.75,23.95,292.86,94,100,2.21,CD,1698715364
392,praia da vitoria,38.7333,-27.0667,292.46,82,40,8.04,PT,1698715366
393,souillac,-20.5167,57.5167,297.36,88,40,1.54,MU,1698715368
394,quimili,-27.6333,-62.4167,289.16,78,100,6.07,AR,1698715370
395,kuala terengganu,5.3302,103.1408,301.12,89,20,1.03,MY,1698715372
396,kuala belait,4.5833,114.1833,302.24,84,100,2.04,BN,1698715374
397,vanimo,-2.6741,141.3028,299.23,90,100,4.41,PG,1698715377
398,hadibu,12.65,54.0333,299.24,76,100,4.22,YE,1698715379
399,narrabri,-30.3167,149.7833,305.66,24,100,0.89,AU,1698715381
400,saldanha,-33.0117,17.9442,289.18,67,1,5.0,ZA,1698715383
401,broken hill,-31.95,141.4333,290.68,39,48,5.48,AU,1698715385
402,pyinmana,19.7333,96.2167,296.38,91,100,0.7,MM,1698715387
403,ghadamis,30.1337,9.5007,297.46,20,12,4.09,LY,1698715390
404,pokrovsk,48.282,37.1758,283.32,81,100,3.83,UA,1698715392
405,santa rosalia,27.3167,-112.2833,294.95,51,0,4.92,MX,1698715396
406,xam nua,20.4197,104.0439,291.71,86,100,0.83,LA,1698715399
407,phek,25.6667,94.5,283.7,89,19,0.65,IN,1698715401
408,necochea,-38.5473,-58.7368,281.25,65,1,3.29,AR,1698715403
409,san antonio oeste,-40.7319,-64.9477,283.88,47,4,8.13,AR,1698715405
410,east london,-33.0153,27.9116,286.62,85,28,4.29,ZA,1698715344
411,akom ii,2.7833,10.5667,294.6,98,100,0.98,CM,1698715410
412,garissa,-0.4536,39.6401,298.82,75,13,4.29,KE,1698715412
413,yuzhno-kurilsk,44.0306,145.8556,284.47,81,34,4.59,RU,1698715414
414,tshabong,-26.05,22.45,286.34,73,1,8.04,BW,1698715416
415,meiktila,20.8667,95.8667,296.32,79,67,2.13,MM,1698715419
416,farmville,37.3021,-78.3919,291.37,89,100,3.09,US,1698715421
417,caorle,45.5966,12.8758,292.17,80,100,9.16,IT,1698715423
418,qamdo,31.1667,97.2333,270.07,67,79,0.68,CN,1698715425
419,ulundi,-28.3352,31.4162,285.47,80,100,1.31,ZA,1698715427
420,cumana,10.4635,-64.1775,299.8,77,75,1.42,VE,1698715429
421,bol,13.4586,14.7147,301.48,35,3,7.42,TD,1698715431
422,dryden,49.7833,-92.7503,269.31,93,75,1.54,CA,1698715434
423,richards bay,-28.783,32.0377,288.46,85,99,2.43,ZA,1698715436
424,fale old settlement,-9.3852,-171.2468,301.77,77,100,6.93,TK,1698715438
425,acarau,-2.8856,-40.12,299.17,75,50,6.54,BR,1698715440
426,nema,57.5067,50.5011,269.67,97,97,2.59,RU,1698715442
427,sultangazi,41.1065,28.8685,292.14,82,40,2.57,TR,1698715444
428,chela,34.069,104.4619,282.07,67,4,1.39,CN,1698715447
429,tzaneen,-23.8332,30.1635,283.77,68,100,0.92,ZA,1698715449
430,zachary,30.6485,-91.1565,284.11,92,100,4.63,US,1698715451
431,yelizovo,53.1873,158.3805,280.23,52,0,6.0,RU,1698715453
432,inhambane,-23.865,35.3833,293.01,71,100,5.05,MZ,1698715455
433,namsos,64.4662,11.4957,269.18,86,0,3.09,NO,1698715458
434,acajutla,13.5928,-89.8275,298.75,88,100,7.12,SV,1698715460
435,ancud,-41.8697,-73.8203,278.81,88,11,3.14,CL,1698715462
436,alice springs,-23.7,133.8833,301.9,13,2,7.72,AU,1698715181
437,forshaga,59.5254,13.4813,273.44,100,100,5.14,SE,1698715466
438,ambon,-3.6954,128.1814,303.23,74,40,1.54,ID,1698715469
439,fort st. john,56.2499,-120.8529,277.09,56,75,3.6,CA,1698715448
440,matam,15.6175,-13.3303,304.78,43,88,5.02,SN,1698715473
441,weno,7.4515,151.8468,303.12,79,100,3.6,FM,1698715475
442,tazacorte,28.629,-17.9293,295.69,95,0,1.54,ES,1698715477
443,'ain benian,36.8028,2.9219,294.2,79,100,9.24,DZ,1698715480
444,gargzdai,55.7128,21.4033,281.03,92,100,3.98,LT,1698715482
445,misratah,32.3754,15.0925,296.45,77,0,6.07,LY,1698715484
446,al mijlad,11.0333,27.7333,301.66,52,48,3.38,SD,1698715486
447,porto velho,-8.7619,-63.9039,298.18,94,20,0.51,BR,1698715482
448,taltal,-25.4,-70.4833,291.87,69,13,2.53,CL,1698715491
449,tari,12.4086,4.4914,301.14,20,40,4.02,NG,1698715493
450,lysyye gory,51.5506,44.8414,282.33,82,100,7.29,RU,1698715497
451,east tamworth,-31.0894,150.9436,303.92,23,80,5.14,AU,1698715499
452,karasuk,53.7377,78.0403,270.93,97,100,3.65,RU,1698715501
453,mount pearl,47.5166,-52.7813,274.73,93,100,2.06,CA,1698715504
454,alamosa,37.4695,-105.87,274.14,40,0,1.54,US,1698715508
455,poronaysk,49.2167,143.1167,283.44,58,7,4.55,RU,1698715510
456,sinaloa de leyva,25.8333,-108.2333,298.79,58,0,3.1,MX,1698715286
457,hotan,37.0997,79.9269,286.04,18,0,1.71,CN,1698715515
458,lamu,-2.2717,40.902,298.27,88,12,3.7,KE,1698715517
459,henryetta,35.4398,-95.9819,276.27,67,0,1.81,US,1698715519
460,chandler,33.3062,-111.8412,297.45,23,0,2.57,US,1698715521
461,monster,52.0258,4.175,284.25,94,100,2.57,NL,1698715523
462,lautoka,-17.6167,177.4667,307.07,52,20,4.63,FJ,1698715378
463,vyritsa,59.4078,30.3481,272.69,98,86,1.58,RU,1698715528
464,moyale,3.5167,39.0584,291.66,84,3,2.52,KE,1698715530
465,salina,38.8403,-97.6114,275.34,66,0,3.09,US,1698715379
466,saint-paul,-21.0096,55.2707,296.21,83,2,0.45,RE,1698715534
467,codigoro,44.8311,12.1142,290.92,68,89,9.32,IT,1698715537
468,baker city,44.7749,-117.8344,278.48,51,0,5.14,US,1698715539
469,pokhara,28.2333,83.9833,290.11,47,99,2.91,NP,1698715541
470,hilo,19.7297,-155.09,301.0,82,100,4.63,US,1698715543
471,plastun,44.7561,136.2939,288.07,56,0,1.68,RU,1698715545
472,cidreira,-30.1811,-50.2056,292.73,94,100,2.39,BR,1698715547
473,zhongshu,24.5167,103.7667,287.16,90,100,1.28,CN,1698715550
474,kalemie,-5.9475,29.1947,296.38,75,100,1.2,CD,1698715552
475,mahibadhoo,3.7833,72.9667,300.61,74,76,1.95,MV,1698715554
476,bam,29.106,58.357,294.87,27,61,2.62,IR,1698715556
477,lampazos de naranjo,27.0167,-100.5167,281.34,60,100,4.21,MX,1698715558
478,port douglas,-16.4833,145.4667,298.68,55,95,4.6,AU,1698715560
479,kangding,30.0513,101.9603,283.65,81,28,1.4,CN,1698715563
480,saffron walden,52.0234,0.2423,280.4,97,0,2.57,GB,1698715565
481,yarmouth,41.7057,-70.2286,285.35,95,100,10.28,US,1698715567
482,kerikeri,-35.2268,173.9474,292.81,84,98,3.11,NZ,1698715569
483,princeville,45.7668,-61.2985,277.21,96,100,1.54,CA,1698715571
484,taroa,8.7058,171.2275,301.18,81,75,8.05,MH,1698715574
485,port blair,11.6667,92.75,301.17,83,40,2.06,IN,1698715576
486,keflavik,64.0049,-22.5624,276.39,75,75,6.69,IS,1698715578
487,bubaque,11.2833,-15.8333,301.49,72,77,4.17,GW,1698715581
488,illizi,26.4833,8.4667,298.64,17,0,4.67,DZ,1698715583
489,lebanon,36.2081,-86.2911,279.97,91,100,4.63,US,1698715585
490,kvissleby,62.2936,17.375,271.06,78,100,6.35,SE,1698715587
491,yetkul',54.8221,61.588,266.4,97,92,2.13,RU,1698715589
492,lysekil,58.2743,11.4358,275.94,85,100,7.54,SE,1698715592
493,devils lake,48.1128,-98.8651,267.14,80,100,11.83,US,1698715594
494,puerto armuelles,8.2833,-82.8667,300.42,75,100,4.47,PA,1698715431
495,tillaberi,14.2117,1.4531,302.24,13,0,3.97,NE,1698715599
496,liegi,50.6337,5.5675,283.69,93,75,6.17,BE,1698715578
497,siwa oasis,29.2041,25.5195,294.93,72,3,3.01,EG,1698715603
498,sirnak,37.5228,42.4594,284.19,41,99,3.08,TR,1698715606
499,sanawad,22.1833,76.0667,292.44,54,100,2.73,IN,1698715608
500,cabedelo,-6.9811,-34.8339,297.52,75,100,4.99,BR,1698715610
501,wildwood,38.5828,-90.6629,275.51,76,0,1.54,US,1698715612
502,san jose del guaviare,2.5729,-72.6459,297.8,86,60,1.47,CO,1698715614
503,sohbatpur,28.5202,68.5434,295.7,34,0,0.23,PK,1698715616
504,clinton,42.587,-82.9199,277.16,64,6,0.45,US,1698715618
505,iaciara,-14.0958,-46.6317,302.38,27,97,1.25,BR,1698715620
506,marat,25.0701,45.4615,294.02,49,16,2.39,SA,1698715623
507,mutsu,41.2894,141.2169,287.98,68,6,4.24,JP,1698715625
508,uliastay,47.7417,96.8444,274.3,77,100,2.22,MN,1698715627
509,lazaro cardenas,17.9583,-102.2,300.01,85,9,2.04,MX,1698715629
510,pitimbu,-7.4706,-34.8086,297.48,77,100,4.7,BR,1698715631
511,badger,64.8,-147.5333,274.08,83,75,0.0,US,1698715634
512,toliara,-23.35,43.6667,294.99,83,100,4.76,MG,1698715636
513,baoding,38.8511,115.4903,289.85,49,10,0.93,CN,1698715638
514,la ronge,55.1001,-105.2842,263.29,73,0,1.54,CA,1698715640
515,wulingyuan,29.3494,110.5441,292.16,70,33,1.17,CN,1698715643
516,brookings,44.3114,-96.7984,272.15,71,100,15.43,US,1698715645
517,massawa,15.6097,39.45,302.48,64,94,0.78,ER,1698715647
518,san miguel de allende,20.9167,-100.75,291.59,67,5,3.13,MX,1698715649
519,wading river,40.9455,-72.8209,285.14,83,100,10.73,US,1698715651
520,mhamid,29.82,-5.72,295.77,30,94,0.8,MA,1698715653
521,petropavl,54.8753,69.1628,269.14,100,100,3.0,KZ,1698715656
522,dibba al-hisn,25.6196,56.2729,295.25,53,7,1.54,AE,1698715658
523,tasgaon,17.0333,74.6,294.94,52,35,3.77,IN,1698715660
524,ust-tsilma,65.441,52.1498,264.6,98,92,0.89,RU,1698715662
525,santiago de cuba,20.0247,-75.8219,301.21,83,40,2.06,CU,1698715665
526,la'ie,21.6477,-157.9253,304.13,69,21,2.68,US,1698715658
527,hammerfest,70.6634,23.6821,275.4,80,40,5.66,NO,1698715669
528,svetlyy,54.675,20.1347,284.46,88,100,4.24,RU,1698715671
529,laojunmiao,39.8333,97.7333,281.51,27,78,1.69,CN,1698715673
530,nagqu,31.5,92.0,266.49,83,86,1.48,CN,1698715660
531,yoichi,43.2039,140.7703,286.68,65,100,2.39,JP,1698715677
532,guerrero negro,27.9769,-114.0611,296.41,42,0,4.79,MX,1698715679
533,kisangani,0.5167,25.2,294.67,95,100,0.92,CD,1698715681
534,ouarzazat,30.9189,-6.8934,291.31,17,75,1.03,MA,1698715684
535,boyolangu,-8.1181,111.8935,302.12,64,34,2.76,ID,1698715686
536,dalcahue,-42.3628,-73.7022,276.59,87,8,1.03,CL,1698715688
537,piton saint-leu,-21.2196,55.3151,294.21,64,0,4.63,RE,1698715690
538,al fallujah,33.3538,43.7795,294.09,30,100,2.49,IQ,1698715694
539,chui,-33.6971,-53.4616,287.47,94,100,8.32,UY,1698715696
540,cumbal,0.9088,-77.7915,282.52,97,100,0.54,CO,1698715698
541,tralee,52.2704,-9.7026,282.71,89,83,1.71,IE,1698715439
542,napier,-39.4833,176.9167,289.97,92,100,3.13,NZ,1698715685
543,igarka,67.4667,86.5833,255.83,96,100,1.46,RU,1698715615
544,tidjikja,18.5564,-11.4271,302.9,12,20,4.0,MR,1698715583
545,hamilton,39.1834,-84.5333,277.99,89,75,3.09,US,1698715435
546,juan griego,11.0817,-63.9655,300.15,83,100,3.87,VE,1698715711
547,vila do maio,15.1333,-23.2167,298.59,73,27,2.92,CV,1698715713
548,ciudad melchor muzquiz,27.8833,-101.5167,281.77,47,100,4.51,MX,1698715715
549,enid,36.3956,-97.8784,276.24,68,0,0.0,US,1698715718
550,tonghae,37.5439,129.1069,291.37,50,0,1.88,KR,1698715720
551,saint-philippe,-21.3585,55.7679,295.92,81,19,4.28,RE,1698715578
552,sao jose da coroa grande,-8.8978,-35.1478,297.93,71,93,3.41,BR,1698715724
553,edson,53.5835,-116.4356,275.23,69,100,1.03,CA,1698715726
554,les anglais,18.3054,-74.2197,300.67,84,99,3.49,HT,1698715728
555,faro,37.0194,-7.9322,290.35,72,0,1.54,PT,1698715640
556,myeik,12.4333,98.6,299.3,83,77,2.3,MM,1698715733
557,kota belud,6.351,116.4305,302.83,64,94,0.92,MY,1698715735
558,funafuti,-8.5243,179.1942,305.15,84,40,2.06,TV,1698715737
559,argo,37.6333,22.7333,290.25,72,0,1.34,GR,1698715739
560,sydney,-33.8679,151.2073,304.45,17,0,10.29,AU,1698715680
561,freetown,8.484,-13.2299,298.99,83,40,3.09,SL,1698715743
562,nadi,-17.8,177.4167,307.15,52,20,4.63,FJ,1698715745
563,bugiri,0.5714,33.7417,292.26,93,94,1.0,UG,1698715748
564,port said,31.2565,32.2841,299.55,74,72,4.22,EG,1698715750
565,neelankarai,12.9455,80.2575,299.28,89,75,1.03,IN,1698715752
566,baiyin,36.5583,104.2081,285.15,35,0,1.7,CN,1698715755
567,slave lake,55.2834,-114.769,273.14,69,100,3.6,CA,1698715757
568,mahad,18.0833,73.4167,296.25,53,3,2.05,IN,1698715759
569,touros,-5.1989,-35.4608,298.84,71,27,6.11,BR,1698715761
570,clodomira,-27.5744,-64.1311,288.6,74,95,6.17,AR,1698715763
571,gombong,-7.6072,109.5142,302.43,64,33,1.77,ID,1698715768
572,sitka,57.0531,-135.33,282.09,81,100,3.6,US,1698715770
573,lucapa,-8.4192,20.7447,292.68,97,100,1.27,AO,1698715772
574,canutama,-6.5339,-64.3831,301.34,62,81,1.99,BR,1698715774
575,surab,28.4914,66.2585,286.32,50,1,0.79,PK,1698715776
576,fisterra,42.9049,-9.2629,287.05,76,38,7.21,ES,1698715779
